{"type":"FeatureCollection","features":[{"type":"Feature","properties":{"name":"Château du Petit Arnsbourg","wikipedia":"Château_du_Petit-Arnsberg","cartodb_id":9,"created_at":"2013-05-18T20:01:03.710Z","updated_at":"2013-05-18T20:01:03.939Z","century":null,"pics":null},"geometry":{"type":"Point","coordinates":[7.690477,49.038794]}},{"type":"Feature","properties":{"name":"Château de Wangenbourg","wikipedia":"Château_de_Wangenbourg","cartodb_id":10,"created_at":"2013-05-18T20:01:03.710Z","updated_at":"2013-05-18T20:01:03.939Z","century":null,"pics":null},"geometry":{"type":"Point","coordinates":[7.314089,48.620633]}},{"type":"Feature","properties":{"name":"Château du Nideck (Unter-Nideck)","wikipedia":"Château_du_Nideck","cartodb_id":11,"created_at":"2013-05-18T20:01:03.710Z","updated_at":"2013-05-18T20:01:03.939Z","century":null,"pics":null},"geometry":{"type":"Point","coordinates":[7.283172,48.579443]}},{"type":"Feature","properties":{"name":"Château du Kagenfels","wikipedia":"Château_du_Kagenfels","cartodb_id":12,"created_at":"2013-05-18T20:01:03.710Z","updated_at":"2013-05-18T20:01:03.939Z","century":null,"pics":null},"geometry":{"type":"Point","coordinates":[7.366436,48.444842]}},{"type":"Feature","properties":{"name":"Château du Hagelschloss","wikipedia":"Château_du_Hagelschloss","cartodb_id":13,"created_at":"2013-05-18T20:01:03.710Z","updated_at":"2013-05-18T20:01:03.939Z","century":null,"pics":null},"geometry":{"type":"Point","coordinates":[7.389548,48.44869]}},{"type":"Feature","properties":{"name":"Château de Fleckenstein","wikipedia":"Château_de_Fleckenstein","cartodb_id":14,"created_at":"2013-05-18T20:01:03.710Z","updated_at":"2013-05-18T23:07:09.263Z","century":null,"pics":null},"geometry":{"type":"Point","coordinates":[7.771741,49.044883]}},{"type":"Feature","properties":{"name":"Petit-Wasigenstein","wikipedia":"Château_du_Wasigenstein","cartodb_id":15,"created_at":"2013-05-18T20:01:03.710Z","updated_at":"2013-05-18T20:01:03.939Z","century":null,"pics":null},"geometry":{"type":"Point","coordinates":[7.701473,49.047908]}},{"type":"Feature","properties":{"name":"Château de Frœnsbourg","wikipedia":"Château_du_Frœnsbourg","cartodb_id":16,"created_at":"2013-05-18T20:01:03.710Z","updated_at":"2013-05-18T23:07:54.877Z","century":null,"pics":null},"geometry":{"type":"Point","coordinates":[7.743349,49.036937]}},{"type":"Feature","properties":{"name":"Château d'Orschwihr","wikipedia":"Orschwihr#Ch.C3.A2teau_d.27Orschwihr","cartodb_id":17,"created_at":"2013-05-18T20:01:03.710Z","updated_at":"2013-05-18T20:01:03.939Z","century":null,"pics":null},"geometry":{"type":"Point","coordinates":[7.234459,47.935184]}},{"type":"Feature","properties":{"name":"Château du Petit-Geroldseck","wikipedia":"Château_du_Petit-Geroldseck","cartodb_id":18,"created_at":"2013-05-18T20:01:03.710Z","updated_at":"2013-05-18T20:01:03.939Z","century":null,"pics":null},"geometry":{"type":"Point","coordinates":[7.332204,48.714537]}},{"type":"Feature","properties":{"name":"Château du Nideck (Ober-Nideck)","wikipedia":"Château_du_Nideck","cartodb_id":19,"created_at":"2013-05-18T20:01:03.710Z","updated_at":"2013-05-18T20:01:03.939Z","century":null,"pics":null},"geometry":{"type":"Point","coordinates":[7.282899,48.57997]}},{"type":"Feature","properties":{"name":"Château du Grand-Ringelstein","wikipedia":"Château_du_Grand-Ringelstein","cartodb_id":20,"created_at":"2013-05-18T20:01:03.710Z","updated_at":"2013-05-18T23:11:51.191Z","century":null,"pics":null},"geometry":{"type":"Point","coordinates":[7.321345,48.562751]}},{"type":"Feature","properties":{"name":"Château du Wasigenstein","wikipedia":"Château_du_Wasigenstein","cartodb_id":21,"created_at":"2013-05-18T20:01:03.710Z","updated_at":"2013-05-18T20:01:03.939Z","century":null,"pics":null},"geometry":{"type":"Point","coordinates":[7.701785,49.047928]}},{"type":"Feature","properties":{"name":"Château de la Roche","wikipedia":"Château_de_la_Roche_(Bellefosse)","cartodb_id":22,"created_at":"2013-05-18T20:01:03.710Z","updated_at":"2013-05-18T23:12:57.213Z","century":null,"pics":null},"geometry":{"type":"Point","coordinates":[7.217685,48.396108]}},{"type":"Feature","properties":{"name":"Château d'Ochsenstein","wikipedia":"Château_d'Ochsenstein","cartodb_id":23,"created_at":"2013-05-18T20:01:03.710Z","updated_at":"2013-05-18T20:01:03.939Z","century":null,"pics":null},"geometry":{"type":"Point","coordinates":[7.298198,48.683545]}},{"type":"Feature","properties":{"name":"Château du Hunebourg","wikipedia":"Château_de_Hunebourg","cartodb_id":24,"created_at":"2013-05-18T20:01:03.710Z","updated_at":"2013-05-18T20:01:03.939Z","century":null,"pics":null},"geometry":{"type":"Point","coordinates":[7.364389,48.833149]}},{"type":"Feature","properties":{"name":"Château du Herrenstein","wikipedia":"Château_de_Herrenstein","cartodb_id":25,"created_at":"2013-05-18T20:01:03.710Z","updated_at":"2013-05-18T20:01:03.939Z","century":null,"pics":null},"geometry":{"type":"Point","coordinates":[7.394816,48.824587]}},{"type":"Feature","properties":{"name":"Château de Lichtenberg","wikipedia":"Château_de_Lichtenberg","cartodb_id":26,"created_at":"2013-05-18T20:01:03.710Z","updated_at":"2013-05-18T20:01:03.939Z","century":null,"pics":null},"geometry":{"type":"Point","coordinates":[7.487752,48.921345]}},{"type":"Feature","properties":{"name":"Château du Grand Geroldseck","wikipedia":"Château_du_Grand-Geroldseck","cartodb_id":27,"created_at":"2013-05-18T20:01:03.710Z","updated_at":"2013-05-18T20:01:03.939Z","century":null,"pics":null},"geometry":{"type":"Point","coordinates":[7.332154,48.7188]}},{"type":"Feature","properties":{"name":"Château de Wasselonne","wikipedia":"Château_de_Wasselonne","cartodb_id":28,"created_at":"2013-05-18T20:01:03.710Z","updated_at":"2013-05-18T20:01:03.939Z","century":null,"pics":null},"geometry":{"type":"Point","coordinates":[7.446013,48.637756]}},{"type":"Feature","properties":{"name":"Château du Landskron","wikipedia":"Château_du_Landskron","cartodb_id":29,"created_at":"2013-05-18T20:01:03.710Z","updated_at":"2013-05-18T20:01:03.939Z","century":null,"pics":null},"geometry":{"type":"Point","coordinates":[7.490637,47.488434]}},{"type":"Feature","properties":{"name":"Château de l'Ortenbourg","wikipedia":"Château_de_l%27Ortenbourg","cartodb_id":30,"created_at":"2013-05-18T20:01:03.710Z","updated_at":"2013-05-18T20:01:03.939Z","century":null,"pics":null},"geometry":{"type":"Point","coordinates":[7.391989,48.295698]}},{"type":"Feature","properties":{"name":"Château du Kochersberg","wikipedia":"Kochersberg#Ch.C3.A2teau_du_Kochersberg","cartodb_id":31,"created_at":"2013-05-18T20:01:03.710Z","updated_at":"2013-05-18T20:01:03.939Z","century":null,"pics":null},"geometry":{"type":"Point","coordinates":[7.529913,48.664947]}},{"type":"Feature","properties":{"name":"Château de Ramstein","wikipedia":"Château_de_Ramstein","cartodb_id":32,"created_at":"2013-05-18T20:01:03.710Z","updated_at":"2013-05-18T20:01:03.939Z","century":null,"pics":null},"geometry":{"type":"Point","coordinates":[7.388349,48.294462]}},{"type":"Feature","properties":{"name":"Château du Haut-Barr","wikipedia":"Château_du_Haut-Barr","cartodb_id":33,"created_at":"2013-05-18T20:01:03.710Z","updated_at":"2013-05-18T20:01:03.939Z","century":null,"pics":null},"geometry":{"type":"Point","coordinates":[7.338017,48.724526]}},{"type":"Feature","properties":{"name":"Château de Guirbaden","wikipedia":"Château_de_Guirbaden","cartodb_id":34,"created_at":"2013-05-18T20:01:03.710Z","updated_at":"2013-05-18T20:01:03.939Z","century":null,"pics":null},"geometry":{"type":"Point","coordinates":[7.37089,48.493488]}},{"type":"Feature","properties":{"name":"Château de Hohenfels","wikipedia":"Château_de_Hohenfels","cartodb_id":35,"created_at":"2013-05-18T20:01:03.710Z","updated_at":"2013-05-18T20:01:03.939Z","century":null,"pics":null},"geometry":{"type":"Point","coordinates":[7.613363,49.002934]}},{"type":"Feature","properties":{"name":"Château des Rohan","wikipedia":"Château_de_Saverne","cartodb_id":36,"created_at":"2013-05-18T20:01:03.710Z","updated_at":"2013-05-18T20:01:03.939Z","century":null,"pics":null},"geometry":{"type":"Point","coordinates":[7.36346,48.742271]}},{"type":"Feature","properties":{"name":"Petit-Meisenthal","wikipedia":null,"cartodb_id":37,"created_at":"2013-05-18T20:01:03.710Z","updated_at":"2013-05-18T20:01:03.939Z","century":null,"pics":null},"geometry":{"type":"Point","coordinates":[7.389587,48.881191]}},{"type":"Feature","properties":{"name":"Château du Nouveau-Windstein","wikipedia":null,"cartodb_id":38,"created_at":"2013-05-18T20:01:03.710Z","updated_at":"2013-05-18T20:01:03.939Z","century":null,"pics":null},"geometry":{"type":"Point","coordinates":[7.6787,48.993467]}},{"type":"Feature","properties":{"name":"Château du Birkenfels","wikipedia":"Château_du_Birkenfels","cartodb_id":39,"created_at":"2013-05-18T20:01:03.710Z","updated_at":"2013-05-18T20:01:03.939Z","century":null,"pics":null},"geometry":{"type":"Point","coordinates":[7.384031,48.429528]}},{"type":"Feature","properties":{"name":"Château du Bernstein","wikipedia":"Château_du_Bernstein","cartodb_id":40,"created_at":"2013-05-18T20:01:03.710Z","updated_at":"2013-05-18T20:01:03.939Z","century":null,"pics":null},"geometry":{"type":"Point","coordinates":[7.399705,48.32195]}},{"type":"Feature","properties":{"name":"Château de Lutzelbourg","wikipedia":"Château_de_Lutzelbourg","cartodb_id":41,"created_at":"2013-05-18T20:01:03.710Z","updated_at":"2013-05-18T20:01:03.939Z","century":null,"pics":null},"geometry":{"type":"Point","coordinates":[7.408198,48.461441]}},{"type":"Feature","properties":{"name":"Château de Dreistein","wikipedia":"Château_de_Dreistein","cartodb_id":42,"created_at":"2013-05-18T20:01:03.710Z","updated_at":"2013-05-18T20:01:03.939Z","century":null,"pics":null},"geometry":{"type":"Point","coordinates":[7.391445,48.439908]}},{"type":"Feature","properties":{"name":"Château de Koepfel","wikipedia":null,"cartodb_id":43,"created_at":"2013-05-18T20:01:03.710Z","updated_at":"2013-05-18T20:01:03.939Z","century":null,"pics":null},"geometry":{"type":"Point","coordinates":[7.398489,48.460741]}},{"type":"Feature","properties":{"name":"Château du Bilstein lorrain","wikipedia":"Urbeis#Ch.C3.A2teau_du_Bilstein_lorrain","cartodb_id":44,"created_at":"2013-05-18T20:01:03.710Z","updated_at":"2013-05-18T20:01:03.939Z","century":null,"pics":null},"geometry":{"type":"Point","coordinates":[7.221538,48.330322]}},{"type":"Feature","properties":{"name":"Château de Rathsamhausen","wikipedia":"Rathsamhausen","cartodb_id":2,"created_at":"2013-05-18T20:01:03.710Z","updated_at":"2013-05-19T19:27:31.745Z","century":13,"pics":1},"geometry":{"type":"Point","coordinates":[7.406858,48.460972]}},{"type":"Feature","properties":{"name":"Château du Hohlandsbourg","wikipedia":"Château_du_Hohlandsbourg","cartodb_id":3,"created_at":"2013-05-18T20:01:03.710Z","updated_at":"2013-05-19T19:27:55.794Z","century":13,"pics":2},"geometry":{"type":"Point","coordinates":[7.269221,48.059818]}},{"type":"Feature","properties":{"name":"Château de la Petite Pierre","wikipedia":"Château_de_La_Petite-Pierre","cartodb_id":4,"created_at":"2013-05-18T20:01:03.710Z","updated_at":"2013-05-19T19:30:16.163Z","century":12,"pics":2},"geometry":{"type":"Point","coordinates":[7.314766,48.85705]}},{"type":"Feature","properties":{"name":"Château de Lœwenstein","wikipedia":"Château_de_Lœwenstein","cartodb_id":5,"created_at":"2013-05-18T20:01:03.710Z","updated_at":"2013-05-19T19:31:22.492Z","century":12,"pics":1},"geometry":{"type":"Point","coordinates":[7.786469,49.053459]}},{"type":"Feature","properties":{"name":"Château du Hohenbourg","wikipedia":"Château_du_Hohenbourg","cartodb_id":6,"created_at":"2013-05-18T20:01:03.710Z","updated_at":"2013-05-19T19:37:20.475Z","century":13,"pics":2},"geometry":{"type":"Point","coordinates":[7.783812,49.055327]}},{"type":"Feature","properties":{"name":"Château de Wittschlœssel","wikipedia":"Château_de_Wittschlœssel","cartodb_id":7,"created_at":"2013-05-18T20:01:03.710Z","updated_at":"2013-05-19T19:38:26.554Z","century":13,"pics":0},"geometry":{"type":"Point","coordinates":[7.679845,49.022666]}},{"type":"Feature","properties":{"name":"Château du Vieux-Windstein","wikipedia":"Château_du_Vieux-Windstein","cartodb_id":8,"created_at":"2013-05-18T20:01:03.710Z","updated_at":"2013-05-19T19:38:46.795Z","century":13,"pics":null},"geometry":{"type":"Point","coordinates":[7.681706,48.99859]}},{"type":"Feature","properties":{"name":"Château du Freudeneck","wikipedia":"Château_du_Freudeneck","cartodb_id":45,"created_at":"2013-05-18T20:01:03.710Z","updated_at":"2013-05-18T20:01:03.939Z","century":null,"pics":null},"geometry":{"type":"Point","coordinates":[7.327851,48.625364]}},{"type":"Feature","properties":{"name":"Château de Hohenstein","wikipedia":"Château_de_Hohenstein","cartodb_id":46,"created_at":"2013-05-18T20:01:03.710Z","updated_at":"2013-05-18T20:01:03.939Z","century":null,"pics":null},"geometry":{"type":"Point","coordinates":[7.310704,48.566984]}},{"type":"Feature","properties":{"name":"Château du Petit-Ringelstein (ou Petit-Ringelsberg)","wikipedia":"Château_du_Petit-Ringelstein","cartodb_id":47,"created_at":"2013-05-18T20:01:03.710Z","updated_at":"2013-05-18T20:01:03.939Z","century":null,"pics":null},"geometry":{"type":"Point","coordinates":[7.313825,48.573286]}},{"type":"Feature","properties":{"name":"Château d'Échéry","wikipedia":"Château_d'Échéry","cartodb_id":48,"created_at":"2013-05-18T20:01:03.710Z","updated_at":"2013-05-18T20:01:03.939Z","century":null,"pics":null},"geometry":{"type":"Point","coordinates":[7.196214,48.268371]}},{"type":"Feature","properties":{"name":"Château du Haut-Ribeaupierre","wikipedia":"Château_du_Haut-Ribeaupierre","cartodb_id":49,"created_at":"2013-05-18T20:01:03.710Z","updated_at":"2013-05-18T20:01:03.939Z","century":null,"pics":null},"geometry":{"type":"Point","coordinates":[7.305297,48.206277]}},{"type":"Feature","properties":{"name":"Château du Morimont","wikipedia":"Château_du_Morimont","cartodb_id":50,"created_at":"2013-05-18T20:01:03.710Z","updated_at":"2013-05-18T20:01:03.939Z","century":null,"pics":null},"geometry":{"type":"Point","coordinates":[7.214289,47.44551]}},{"type":"Feature","properties":{"name":"Palais Rohan","wikipedia":"Palais_Rohan_(Strasbourg)","cartodb_id":51,"created_at":"2013-05-18T20:01:03.710Z","updated_at":"2013-05-18T20:01:03.939Z","century":null,"pics":null},"geometry":{"type":"Point","coordinates":[7.752258,48.58102]}},{"type":"Feature","properties":{"name":"Palais du Rhin","wikipedia":"Palais_du_Rhin","cartodb_id":52,"created_at":"2013-05-18T20:01:03.710Z","updated_at":"2013-05-18T20:01:03.939Z","century":null,"pics":null},"geometry":{"type":"Point","coordinates":[7.752546,48.587637]}},{"type":"Feature","properties":{"name":"Château de la Cour d'Angleterre","wikipedia":null,"cartodb_id":53,"created_at":"2013-05-18T20:01:03.710Z","updated_at":"2013-05-18T20:01:03.939Z","century":null,"pics":null},"geometry":{"type":"Point","coordinates":[7.798878,48.63126]}},{"type":"Feature","properties":{"name":"Limburg","wikipedia":null,"cartodb_id":54,"created_at":"2013-05-18T20:01:03.710Z","updated_at":"2013-05-18T20:01:03.939Z","century":null,"pics":null},"geometry":{"type":"Point","coordinates":[7.601825,48.148628]}},{"type":"Feature","properties":{"name":"Château de Woerth","wikipedia":"Château_de_W?rth","cartodb_id":55,"created_at":"2013-05-18T20:01:03.710Z","updated_at":"2013-05-18T20:01:03.939Z","century":null,"pics":null},"geometry":{"type":"Point","coordinates":[7.747286,48.938853]}},{"type":"Feature","properties":{"name":"Dagsbourg","wikipedia":"Eguisheim#Les_trois_ch.C3.A2teaux_d.27Eguisheim","cartodb_id":56,"created_at":"2013-05-18T20:01:03.710Z","updated_at":"2013-05-18T20:01:03.939Z","century":null,"pics":null},"geometry":{"type":"Point","coordinates":[7.27296,48.039335]}},{"type":"Feature","properties":{"name":"Wahlenbourg","wikipedia":"Eguisheim#Les_trois_ch.C3.A2teaux_d.27Eguisheim","cartodb_id":57,"created_at":"2013-05-18T20:01:03.710Z","updated_at":"2013-05-18T20:01:03.939Z","century":null,"pics":null},"geometry":{"type":"Point","coordinates":[7.273192,48.038824]}},{"type":"Feature","properties":{"name":"Weckmund","wikipedia":"Eguisheim#Les_trois_ch.C3.A2teaux_d.27Eguisheim","cartodb_id":58,"created_at":"2013-05-18T20:01:03.710Z","updated_at":"2013-05-18T20:01:03.939Z","century":null,"pics":null},"geometry":{"type":"Point","coordinates":[7.273531,48.038461]}},{"type":"Feature","properties":{"name":"Château de Diedendorf","wikipedia":"Château_de_Diedendorf","cartodb_id":59,"created_at":"2013-05-18T20:01:03.710Z","updated_at":"2013-05-18T20:01:03.939Z","century":null,"pics":null},"geometry":{"type":"Point","coordinates":[7.046605,48.878064]}},{"type":"Feature","properties":{"name":"Château de Pourtalčs","wikipedia":"Château_de_Pourtalčs","cartodb_id":60,"created_at":"2013-05-18T20:01:03.710Z","updated_at":"2013-05-18T20:01:03.939Z","century":null,"pics":null},"geometry":{"type":"Point","coordinates":[7.799927,48.60846]}},{"type":"Feature","properties":{"name":"Château Walk","wikipedia":null,"cartodb_id":61,"created_at":"2013-05-18T20:01:03.710Z","updated_at":"2013-05-18T20:01:03.939Z","century":null,"pics":null},"geometry":{"type":"Point","coordinates":[7.767813,48.793385]}},{"type":"Feature","properties":{"name":"Château Saint-Léon Pfalz","wikipedia":null,"cartodb_id":62,"created_at":"2013-05-18T20:01:03.710Z","updated_at":"2013-05-18T20:01:03.939Z","century":null,"pics":null},"geometry":{"type":"Point","coordinates":[7.306,48.042577]}},{"type":"Feature","properties":{"name":"Château du Spesbourg","wikipedia":"Château_du_Spesbourg","cartodb_id":63,"created_at":"2013-05-18T20:01:03.710Z","updated_at":"2013-05-18T20:01:03.939Z","century":null,"pics":null},"geometry":{"type":"Point","coordinates":[7.397075,48.402059]}},{"type":"Feature","properties":{"name":"Château d'Andlau","wikipedia":"Château_d'Andlau","cartodb_id":64,"created_at":"2013-05-18T20:01:03.710Z","updated_at":"2013-05-18T20:01:03.939Z","century":null,"pics":null},"geometry":{"type":"Point","coordinates":[7.412496,48.401472]}},{"type":"Feature","properties":{"name":"Château de Schirmeck","wikipedia":"Schirmeck","cartodb_id":65,"created_at":"2013-05-18T20:01:03.710Z","updated_at":"2013-05-18T20:01:03.939Z","century":null,"pics":null},"geometry":{"type":"Point","coordinates":[7.218581,48.475798]}},{"type":"Feature","properties":{"name":"Château de Salm","wikipedia":"Château_de_Salm","cartodb_id":66,"created_at":"2013-05-18T20:01:03.710Z","updated_at":"2013-05-18T20:01:03.939Z","century":null,"pics":null},"geometry":{"type":"Point","coordinates":[7.140287,48.453126]}},{"type":"Feature","properties":{"name":"Château de Birkenwald","wikipedia":"Château_de_Birkenwald","cartodb_id":67,"created_at":"2013-05-18T20:01:03.710Z","updated_at":"2013-05-18T20:01:03.939Z","century":null,"pics":null},"geometry":{"type":"Point","coordinates":[7.34393,48.658602]}},{"type":"Feature","properties":{"name":"Ancien château de Brumath","wikipedia":null,"cartodb_id":68,"created_at":"2013-05-18T20:01:03.710Z","updated_at":"2013-05-18T20:01:03.939Z","century":null,"pics":null},"geometry":{"type":"Point","coordinates":[7.709615,48.731679]}},{"type":"Feature","properties":{"name":"Château du Haut-Kœnigsbourg","wikipedia":"Château_du_Haut-Kœnigsbourg","cartodb_id":69,"created_at":"2013-05-18T20:01:03.710Z","updated_at":"2013-05-18T23:13:59.214Z","century":null,"pics":null},"geometry":{"type":"Point","coordinates":[7.34439,48.249449]}},{"type":"Feature","properties":{"name":"Château de Kaysersberg","wikipedia":"Château_de_Kaysersberg","cartodb_id":70,"created_at":"2013-05-18T20:01:03.710Z","updated_at":"2013-05-18T20:01:03.939Z","century":null,"pics":null},"geometry":{"type":"Point","coordinates":[7.262286,48.140385]}},{"type":"Feature","properties":{"name":"Château du Girsberg","wikipedia":"Château_du_Girsberg","cartodb_id":71,"created_at":"2013-05-18T20:01:03.710Z","updated_at":"2013-05-18T20:01:03.939Z","century":null,"pics":null},"geometry":{"type":"Point","coordinates":[7.30729,48.203407]}},{"type":"Feature","properties":{"name":"Château de Saint-Ulrich","wikipedia":"Château_de_Saint-Ulrich","cartodb_id":72,"created_at":"2013-05-18T20:01:03.710Z","updated_at":"2013-05-18T20:01:03.939Z","century":null,"pics":null},"geometry":{"type":"Point","coordinates":[7.305186,48.202816]}},{"type":"Feature","properties":{"name":"Château des Zorn de Bulach","wikipedia":null,"cartodb_id":73,"created_at":"2013-05-18T20:01:03.710Z","updated_at":"2013-05-18T20:01:03.939Z","century":null,"pics":null},"geometry":{"type":"Point","coordinates":[7.639284,48.399481]}},{"type":"Feature","properties":{"name":"Château du Bucheneck","wikipedia":null,"cartodb_id":74,"created_at":"2013-05-18T20:01:03.710Z","updated_at":"2013-05-18T20:01:03.939Z","century":null,"pics":null},"geometry":{"type":"Point","coordinates":[7.227374,47.886889]}},{"type":"Feature","properties":{"name":"Château des Rohan","wikipedia":null,"cartodb_id":75,"created_at":"2013-05-18T20:01:03.710Z","updated_at":"2013-05-18T20:01:03.939Z","century":null,"pics":null},"geometry":{"type":"Point","coordinates":[7.45363,48.536332]}},{"type":"Feature","properties":{"name":"Château du Hugstein","wikipedia":"Château_du_Hugstein","cartodb_id":76,"created_at":"2013-05-18T20:01:03.710Z","updated_at":"2013-05-18T20:01:03.939Z","century":null,"pics":null},"geometry":{"type":"Point","coordinates":[7.192083,47.920746]}},{"type":"Feature","properties":{"name":"Château des Wurtemberg","wikipedia":null,"cartodb_id":77,"created_at":"2013-05-18T20:01:03.710Z","updated_at":"2013-05-18T20:01:03.939Z","century":null,"pics":null},"geometry":{"type":"Point","coordinates":[7.29926,48.166086]}},{"type":"Feature","properties":{"name":"Château de Werde","wikipedia":null,"cartodb_id":78,"created_at":"2013-05-18T20:01:03.710Z","updated_at":"2013-05-18T20:01:03.939Z","century":null,"pics":null},"geometry":{"type":"Point","coordinates":[7.637459,48.387941]}},{"type":"Feature","properties":{"name":"Château du Pflixbourg","wikipedia":"Château_du_Pflixbourg","cartodb_id":79,"created_at":"2013-05-18T20:01:03.710Z","updated_at":"2013-05-18T20:01:03.939Z","century":null,"pics":null},"geometry":{"type":"Point","coordinates":[7.254354,48.067112]}},{"type":"Feature","properties":{"name":"Château du Wineck","wikipedia":"Katzenthal#Le_Ch.C3.A2teau_du_Wineck","cartodb_id":80,"created_at":"2013-05-18T20:01:03.710Z","updated_at":"2013-05-18T20:01:03.939Z","century":null,"pics":null},"geometry":{"type":"Point","coordinates":[7.278039,48.10927]}},{"type":"Feature","properties":{"name":"Château de Ferrette","wikipedia":"Château_de_Ferrette","cartodb_id":81,"created_at":"2013-05-18T20:01:03.710Z","updated_at":"2013-05-18T20:01:03.939Z","century":null,"pics":null},"geometry":{"type":"Point","coordinates":[7.31807,47.49371]}},{"type":"Feature","properties":{"name":"Château d'Osthoffen","wikipedia":"Château_d'Osthoffen","cartodb_id":82,"created_at":"2013-05-18T20:01:03.710Z","updated_at":"2013-05-18T20:01:03.939Z","century":null,"pics":null},"geometry":{"type":"Point","coordinates":[7.553181,48.584347]}},{"type":"Feature","properties":{"name":"Château du Warthenberg","wikipedia":null,"cartodb_id":83,"created_at":"2013-05-18T20:01:03.710Z","updated_at":"2013-05-18T20:01:03.939Z","century":null,"pics":null},"geometry":{"type":"Point","coordinates":[7.376126,48.793911]}},{"type":"Feature","properties":{"name":"Château de Thanvillé","wikipedia":null,"cartodb_id":84,"created_at":"2013-05-18T20:01:03.710Z","updated_at":"2013-05-18T20:01:03.939Z","century":null,"pics":null},"geometry":{"type":"Point","coordinates":[7.345119,48.323117]}},{"type":"Feature","properties":{"name":"Château de Thanvillé","wikipedia":"Thanvillé#Ch.C3.A2teau_de_Thanvill.C3.A9","cartodb_id":85,"created_at":"2013-05-18T20:01:03.710Z","updated_at":"2013-05-18T20:01:03.939Z","century":null,"pics":null},"geometry":{"type":"Point","coordinates":[7.34599,48.322887]}},{"type":"Feature","properties":{"name":"Château de Bilstein-Aubure","wikipedia":"Aubure#Le_Bilstein_d.27Aubure","cartodb_id":86,"created_at":"2013-05-18T20:01:03.710Z","updated_at":"2013-05-18T20:01:03.939Z","century":null,"pics":null},"geometry":{"type":"Point","coordinates":[7.26959,48.195433]}},{"type":"Feature","properties":{"name":"Château du Windeck","wikipedia":null,"cartodb_id":87,"created_at":"2013-05-18T20:01:03.710Z","updated_at":"2013-05-18T20:01:03.939Z","century":null,"pics":null},"geometry":{"type":"Point","coordinates":[7.428533,48.458442]}},{"type":"Feature","properties":{"name":"Palais Stanislas","wikipedia":null,"cartodb_id":88,"created_at":"2013-05-18T20:01:03.710Z","updated_at":"2013-05-18T20:01:03.939Z","century":null,"pics":null},"geometry":{"type":"Point","coordinates":[7.941762,49.036024]}},{"type":"Feature","properties":{"name":"Château de Reinach","wikipedia":null,"cartodb_id":89,"created_at":"2013-05-18T20:01:03.710Z","updated_at":"2013-05-18T20:01:03.939Z","century":null,"pics":null},"geometry":{"type":"Point","coordinates":[7.224265,47.598071]}},{"type":"Feature","properties":{"name":"Château du Frankenbourg","wikipedia":"Château_du_Frankenbourg","cartodb_id":90,"created_at":"2013-05-18T20:01:03.710Z","updated_at":"2013-05-18T20:01:03.939Z","century":null,"pics":null},"geometry":{"type":"Point","coordinates":[7.324986,48.295249]}},{"type":"Feature","properties":{"name":"Château de l'Oedenbourg ou Petit-Koenigsbourg","wikipedia":null,"cartodb_id":91,"created_at":"2013-05-18T20:01:03.710Z","updated_at":"2013-05-18T20:01:03.939Z","century":null,"pics":null},"geometry":{"type":"Point","coordinates":[7.339218,48.249238]}},{"type":"Feature","properties":{"name":"Château d'Asswiler","wikipedia":null,"cartodb_id":92,"created_at":"2013-05-18T20:01:03.710Z","updated_at":"2013-05-18T20:01:03.939Z","century":null,"pics":null},"geometry":{"type":"Point","coordinates":[7.219315,48.878637]}},{"type":"Feature","properties":{"name":"Château Burrus","wikipedia":"Hombourg_(Haut-Rhin)#Le_ch.C3.A2teau","cartodb_id":93,"created_at":"2013-05-18T20:01:03.710Z","updated_at":"2013-05-18T20:01:03.939Z","century":null,"pics":null},"geometry":{"type":"Point","coordinates":[7.504202,47.752741]}},{"type":"Feature","properties":{"name":"Château de Hombourg","wikipedia":null,"cartodb_id":94,"created_at":"2013-05-18T20:01:03.710Z","updated_at":"2013-05-18T20:01:03.939Z","century":null,"pics":null},"geometry":{"type":"Point","coordinates":[7.495535,47.752903]}},{"type":"Feature","properties":{"name":"Château de Greifenstein","wikipedia":"Château_de_Greifenstein","cartodb_id":95,"created_at":"2013-05-18T20:01:03.710Z","updated_at":"2013-05-18T20:01:03.939Z","century":null,"pics":null},"geometry":{"type":"Point","coordinates":[7.334138,48.735883]}},{"type":"Feature","properties":{"name":"Château du Wasenbourg","wikipedia":"Château_du_Wasenbourg","cartodb_id":96,"created_at":"2013-05-18T20:01:03.710Z","updated_at":"2013-05-18T20:01:03.939Z","century":null,"pics":null},"geometry":{"type":"Point","coordinates":[7.61626,48.960201]}},{"type":"Feature","properties":{"name":"Château de l'Engelbourg","wikipedia":null,"cartodb_id":97,"created_at":"2013-05-18T20:01:03.710Z","updated_at":"2013-05-18T20:01:03.939Z","century":null,"pics":null},"geometry":{"type":"Point","coordinates":[7.101242,47.814838]}},{"type":"Feature","properties":{"name":"Château de Lutzelhardt","wikipedia":"Château_de_Lutzelhardt","cartodb_id":98,"created_at":"2013-05-18T20:01:03.710Z","updated_at":"2013-05-18T20:01:03.939Z","century":null,"pics":null},"geometry":{"type":"Point","coordinates":[7.655704,49.045504]}},{"type":"Feature","properties":{"name":"Château de Kintzheim","wikipedia":"Château_de_Kintzheim","cartodb_id":99,"created_at":"2013-05-18T20:01:03.710Z","updated_at":"2013-05-18T20:01:03.939Z","century":null,"pics":null},"geometry":{"type":"Point","coordinates":[7.386588,48.256109]}},{"type":"Feature","properties":{"name":"Château du Landsberg","wikipedia":"Château_du_Landsberg","cartodb_id":100,"created_at":"2013-05-18T20:01:03.710Z","updated_at":"2013-05-18T20:01:03.939Z","century":null,"pics":null},"geometry":{"type":"Point","coordinates":[7.422478,48.420487]}},{"type":"Feature","properties":{"name":"Château du Petit-Hohnack","wikipedia":null,"cartodb_id":101,"created_at":"2013-05-18T20:01:03.710Z","updated_at":"2013-05-18T20:01:03.939Z","century":null,"pics":null},"geometry":{"type":"Point","coordinates":[7.183908,48.094198]}},{"type":"Feature","properties":{"name":"Château de Schœneck","wikipedia":"Château_de_Schœneck","cartodb_id":102,"created_at":"2013-05-18T20:01:03.710Z","updated_at":"2013-05-18T23:09:07.779Z","century":null,"pics":null},"geometry":{"type":"Point","coordinates":[7.658511,49.018679]}},{"type":"Feature","properties":{"name":"Château de Wineck","wikipedia":"Château_de_Wineck","cartodb_id":103,"created_at":"2013-05-18T20:01:03.710Z","updated_at":"2013-05-18T20:01:03.939Z","century":null,"pics":null},"geometry":{"type":"Point","coordinates":[7.662125,49.013656]}},{"type":"Feature","properties":{"name":"Château du Wasigenstein","wikipedia":"Château_du_Wasigenstein","cartodb_id":1,"created_at":"2013-05-18T20:01:03.710Z","updated_at":"2013-05-19T16:27:17.515Z","century":13,"pics":2},"geometry":{"type":"Point","coordinates":[7.702065,49.047864]}}]}